[{"source": {"lat": 29.069629, "lng": -95.497914, "name": "Lake Jackson"}, "destination": {"lat": 37.09024, "lng": -95.712891, "name": "United States", "city": "", "state": ""}, "text": "How the hell did Rubio save that so perfectly?", "time": "Tue Apr 24 03:37:06 +0000 2018"}, {"source": {"lat": 34.143323, "lng": -117.261028, "name": "Highland"}, "destination": {"lat": 36.3708699, "lng": -94.19307599999999, "name": "Trump Tours", "city": "Bentonville", "state": "AR"}, "text": "How do you think Trump got that ridiculous physical report? https://t.co/ieCzU1zAIN", "time": "Tue Apr 24 03:41:26 +0000 2018"}, {"source": {"lat": 34.10164703, "lng": -118.34098693, "name": "precise_location"}, "destination": {"lat": 34.1020231, "lng": -118.3409712, "name": "TCL Chinese Theatre", "city": "Hollywood", "state": "CA"}, "text": "World Premiere! Loved it!!! @Avengers #infinitywar (@ TCL @ChineseTheatreS in Los Angeles, CA) https://t.co/Eg85gIXiLn", "time": "Tue Apr 24 03:41:51 +0000 2018"}, {"source": {"lat": 44.424395, "lng": -79.746259, "name": "Barrie"}, "destination": {"lat": 51.2659888, "lng": -80.59461739999999, "name": "Factory Island Indian Reserve No. 1", "city": "ON", "state": "Ca"}, "text": "#MyHandleExplained it says \u201cat the shore\u201d in Moose Cree, my language. I chose \u201cat the shore\u201d because it\u2019s an homage\u2026 https://t.co/baI9ibyxx9", "time": "Tue Apr 24 03:41:57 +0000 2018"}, {"source": {"lat": 18.525029, "lng": -78.368878, "name": "Jamaica"}, "destination": {"lat": 37.09024, "lng": -95.712891, "name": "Tina M. Roach-Gagnon, DC", "city": "", "state": ""}, "text": "This is the time Tina #xtinacarpool", "time": "Tue Apr 24 03:42:11 +0000 2018"}, {"source": {"lat": 41.797389, "lng": -111.879045, "name": "Logan"}, "destination": {"lat": 37.6788611, "lng": -92.6658394, "name": "Adams Carolyn", "city": "Lebanon", "state": "MO"}, "text": "Steven Adams is perfect I love him", "time": "Tue Apr 24 03:42:12 +0000 2018"}, {"source": {"lat": 35.291332, "lng": -97.51982, "name": "Norman"}, "destination": {"lat": 37.09024, "lng": -95.712891, "name": "United States", "city": "", "state": ""}, "text": "Rubio loves that off balanced jumper lol", "time": "Tue Apr 24 03:42:38 +0000 2018"}, {"source": {"lat": 26.193854, "lng": -80.363112, "name": "Sunrise"}, "destination": {"lat": 37.3292306, "lng": -95.2627241, "name": "Great Plains Development Authority", "city": "Parsons", "state": "KS"}, "text": "Great \ud83e\udd2a https://t.co/QQWAy2kb6B", "time": "Tue Apr 24 03:42:41 +0000 2018"}, {"source": {"lat": 45.705566, "lng": -73.972965, "name": "Montr\u00e9al"}, "destination": {"lat": 37.2242358, "lng": -95.7083131, "name": "SEK Leaf & Lawn", "city": "", "state": ""}, "text": "@emf4life I know it's unimportant right now, but th Leafs have ALL the momentum going into game 7", "time": "Tue Apr 24 03:42:49 +0000 2018"}, {"source": {"lat": 40.359255, "lng": -80.072649, "name": "Bethel Park"}, "destination": {"lat": 44.5039265, "lng": -70.2161924, "name": "Jay", "city": "", "state": ""}, "text": "#MyHandleExplained \n\u201cThat shit creigh (my name shortened), ain\u2019t it Jay, what she order, fish fillet?!\u201d\nPlus if u f\u2026 https://t.co/I2Pw7pz8yc", "time": "Tue Apr 24 03:42:55 +0000 2018"}, {"source": {"lat": -16.070226, "lng": -54.977739, "name": "Rondon\u00f3polis"}, "destination": {"lat": 32.8117702, "lng": -96.8127801, "name": "Ai Sushi Sake Grill", "city": "Dallas", "state": "TX"}, "text": "Ai meu cora\u00e7\u00e3o https://t.co/PttxY9NZwM", "time": "Tue Apr 24 03:43:03 +0000 2018"}, {"source": {"lat": 48.306272, "lng": -90.418108, "name": "Michigan"}, "destination": {"lat": 36.0758059, "lng": -95.8677196, "name": "Rocket Brothers", "city": "Tulsa", "state": "OK"}, "text": "@Spartydawg14 it's the Rockets and the Warriors for the title. Hopefully it's Philly from the East so we get to see\u2026 https://t.co/UHfCiavPxG", "time": "Tue Apr 24 03:43:02 +0000 2018"}, {"source": {"lat": -2.45821, "lng": -44.441517, "name": "S\u00e3o Lu\u00eds"}, "destination": {"lat": 36.0788566, "lng": -94.25227579999999, "name": "Penguin Ed's West Bar-B-Que", "city": "Fayetteville", "state": "AR"}, "text": "Que homem! https://t.co/EJ9YSY9nlM", "time": "Tue Apr 24 03:43:09 +0000 2018"}, {"source": {"lat": 29.693046, "lng": -98.778559, "name": "San Antonio"}, "destination": {"lat": 36.1606318, "lng": -95.9420689, "name": "Ricky's Auto Repair", "city": "Tulsa", "state": "OK"}, "text": "Ricky Rubio looking like Steve Nash", "time": "Tue Apr 24 03:43:14 +0000 2018"}, {"source": {"lat": 36.588118, "lng": -84.321948, "name": "North Carolina"}, "destination": {"lat": 43.6770252, "lng": -70.3711617, "name": "Westbrook", "city": "", "state": ""}, "text": "Westbrook playing himself wanting to take personal with Rubio", "time": "Tue Apr 24 03:43:29 +0000 2018"}, {"source": {"lat": 42.023067, "lng": -87.940033, "name": "Chicago"}, "destination": {"lat": 37.09024, "lng": -95.712891, "name": "United States", "city": "", "state": ""}, "text": "Rubio owns Westbrook", "time": "Tue Apr 24 03:43:27 +0000 2018"}, {"source": {"lat": 31.001056, "lng": -87.634643, "name": "Florida"}, "destination": {"lat": 37.3292306, "lng": -95.2627241, "name": "Great Plains Development Authority", "city": "Parsons", "state": "KS"}, "text": "Great play by rubio", "time": "Tue Apr 24 03:43:28 +0000 2018"}, {"source": {"lat": 40.800037, "lng": -73.962582, "name": "Queens"}, "destination": {"lat": 37.09024, "lng": -95.712891, "name": "United States", "city": "", "state": ""}, "text": "Rubio making me a fan of his again", "time": "Tue Apr 24 03:43:28 +0000 2018"}, {"source": {"lat": 42.327133, "lng": -84.820309, "name": "Ohio"}, "destination": {"lat": 37.09024, "lng": -95.712891, "name": "United States", "city": "", "state": ""}, "text": "Rubio was moving", "time": "Tue Apr 24 03:43:30 +0000 2018"}, {"source": {"lat": 30.154665, "lng": -95.823268, "name": "Houston"}, "destination": {"lat": 37.09024, "lng": -95.712891, "name": "United States", "city": "", "state": ""}, "text": "And Rubio draws his 4th!", "time": "Tue Apr 24 03:43:35 +0000 2018"}, {"source": {"lat": 39.037765, "lng": -76.800034, "name": "Bowie"}, "destination": {"lat": 36.132263, "lng": -95.96292299999999, "name": "Grand Vin Bottle Shop", "city": "Tulsa", "state": "OK"}, "text": "Vin Diesel\ud83d\ude02 https://t.co/GaRWcy1wyN", "time": "Tue Apr 24 03:43:32 +0000 2018"}, {"source": {"lat": 28.964071, "lng": -81.285896, "name": "Deltona"}, "destination": {"lat": 37.09024, "lng": -95.712891, "name": "United States", "city": "", "state": ""}, "text": "they only calling fouls on russ cause he said he was gone shut down Rubio. i hate the nba refs.", "time": "Tue Apr 24 03:43:37 +0000 2018"}]