[{"source": {"lat": 34.098663, "lng": -118.327996, "name": "Los Angeles, CA"}, "destination": {"lat": 34.098663, "lng": -118.327996, "name": "Kanye West called slavery a choice. TMZ's Van Lathan gave a forceful and thoughtful rebuke.", "city": "Los Angeles", "state": "CA"}, "text": "RT @CraigRozniecki: Kanye West: \"Having never been a slave myself, I think I have the knowledge and experience necessary to say that slaver\u2026", "time": "Wed May 02 04:12:01 +0000 2018"}, {"source": {"lat": 26.316775, "lng": -80.245605, "name": "Parkland, FL"}, "destination": {"lat": 38.911477, "lng": -77.036207, "name": "Mueller raised possibility of presidential subpoena in meeting with Trump's legal team", "city": "Washington", "state": "DC"}, "text": "RT @johncardillo: I\u2019d like to see #Mueller try to subpoena a sitting POTUS over bogus allegations based on the rantings of partisan lunatic\u2026", "time": "Wed May 02 04:12:01 +0000 2018"}, {"source": {"lat": 26.316775, "lng": -80.245605, "name": "Parkland, FL"}, "destination": {"lat": 38.911477, "lng": -77.036207, "name": "Mueller raised possibility of presidential subpoena in meeting with Trump's legal team", "city": "Washington", "state": "DC"}, "text": "RT @MaddowBlog: If Mueller raised the issue of issuing a subpoena to Donald Trump, he would have already talked about doing so with Rod Ros\u2026", "time": "Wed May 02 04:12:01 +0000 2018"}, {"source": {"lat": 34.098663, "lng": -118.327996, "name": "Los Angeles, CA"}, "destination": {"lat": 34.098663, "lng": -118.327996, "name": "Kanye West called slavery a choice. TMZ's Van Lathan gave a forceful and thoughtful rebuke.", "city": "Los Angeles", "state": "CA"}, "text": "RT @Bakari_Sellers: We the black delegation have cut Kanye West. He represents the world.\n\nWe are in active negotiations to sign Michelle W\u2026", "time": "Wed May 02 04:12:01 +0000 2018"}, {"source": {"lat": 29.750695, "lng": -95.391328, "name": "Houston, TX"}, "destination": {"lat": 34.098663, "lng": -118.327996, "name": "Kanye West called slavery a choice. TMZ's Van Lathan gave a forceful and thoughtful rebuke.", "city": "Los Angeles", "state": "CA"}, "text": "RT @Matsamon: WOW.. Kanye West just told the TMZ newsroom that 400 years of slavery was a choice for black people. \n\nTMZ employee Van Latha\u2026", "time": "Wed May 02 04:12:02 +0000 2018"}, {"source": {"lat": 30.298267, "lng": -97.747886, "name": "Austin, TX"}, "destination": {"lat": 38.911477, "lng": -77.036207, "name": "Mueller raised possibility of presidential subpoena in meeting with Trump's legal team", "city": "Washington", "state": "DC"}, "text": "RT @MediaJuggernaut: Don't #MuteKanye.\nSlavery isn't a choice, But if you're told you MUST vote democrat because of your race, and you do i\u2026", "time": "Wed May 02 04:12:02 +0000 2018"}, {"source": {"lat": 34.098663, "lng": -118.327996, "name": "Los Angeles, CA"}, "destination": {"lat": 26.316775, "lng": -80.245605, "name": "Arrested: Zachary Cruz, brother of Parkland school shooter", "city": "Parkland", "state": "FL"}, "text": "RT @AlbertoRodNews: URGENTE | Diario Sun-Sentinel: De acuerdo con la orden, Zachary Cruz viol\u00f3 la libertad condicional conduciendo una cami\u2026", "time": "Wed May 02 04:12:02 +0000 2018"}, {"source": {"lat": 42.345737, "lng": -71.071228, "name": "Boston, MA"}, "destination": {"lat": 38.911477, "lng": -77.036207, "name": "Mueller raised possibility of presidential subpoena in meeting with Trump's legal team", "city": "Washington", "state": "DC"}, "text": "RT @DRUDGE_REPORT: MUELLER WARNS:  MAY SUBPOENA TRUMP https://t.co/PMTzgTEqS9", "time": "Wed May 02 04:12:02 +0000 2018"}, {"source": {"lat": 33.749366, "lng": -84.417179, "name": "Atlanta, GA"}, "destination": {"lat": 34.098663, "lng": -118.327996, "name": "Kanye West called slavery a choice. TMZ's Van Lathan gave a forceful and thoughtful rebuke.", "city": "Los Angeles", "state": "CA"}, "text": "RT @TMZ: Kanye West stirs up the TMZ newsroom over TRUMP, SLAVERY and FREE THOUGHT. There's A LOT more that went down ... and the fireworks\u2026", "time": "Wed May 02 04:12:03 +0000 2018"}, {"source": {"lat": 42.345737, "lng": -71.071228, "name": "Boston, MA"}, "destination": {"lat": 34.098663, "lng": -118.327996, "name": "Kanye West called slavery a choice. TMZ's Van Lathan gave a forceful and thoughtful rebuke.", "city": "Los Angeles", "state": "CA"}, "text": "RT @CNN: Kanye West just said 400 years of slavery was a choice https://t.co/gMtmMfRnMI https://t.co/rF54ovuhgE", "time": "Wed May 02 04:12:03 +0000 2018"}, {"source": {"lat": 30.298267, "lng": -97.747886, "name": "Austin, TX"}, "destination": {"lat": 34.098663, "lng": -118.327996, "name": "Kanye West called slavery a choice. TMZ's Van Lathan gave a forceful and thoughtful rebuke.", "city": "Los Angeles", "state": "CA"}, "text": "RT @stephenasmith: Don\u2019t usually get caught up in commenting about stuff like this but I saw what Kanye West said and I was ASHAMED. 400 Ye\u2026", "time": "Wed May 02 04:12:04 +0000 2018"}, {"source": {"lat": 34.098663, "lng": -118.327996, "name": "Los Angeles, CA"}, "destination": {"lat": 34.098663, "lng": -118.327996, "name": "Kanye West called slavery a choice. TMZ's Van Lathan gave a forceful and thoughtful rebuke.", "city": "Los Angeles", "state": "CA"}, "text": "RT @stephenasmith: Don\u2019t usually get caught up in commenting about stuff like this but I saw what Kanye West said and I was ASHAMED. 400 Ye\u2026", "time": "Wed May 02 04:12:04 +0000 2018"}, {"source": {"lat": 26.316775, "lng": -80.245605, "name": "Parkland, FL"}, "destination": {"lat": 34.098663, "lng": -118.327996, "name": "Kanye West called slavery a choice. TMZ's Van Lathan gave a forceful and thoughtful rebuke.", "city": "Los Angeles", "state": "CA"}, "text": "RT @CNN: Kanye West just said 400 years of slavery was a choice https://t.co/gMtmMfRnMI https://t.co/rF54ovuhgE", "time": "Wed May 02 04:12:05 +0000 2018"}, {"source": {"lat": 38.589062, "lng": -121.476554, "name": "Sacramento, CA"}, "destination": {"lat": 38.911477, "lng": -77.036207, "name": "Mueller raised possibility of presidential subpoena in meeting with Trump's legal team", "city": "Washington", "state": "DC"}, "text": "RT @jonfavs: Let me get this straight: Trump wanted to leak the list of Mueller questions to show that Mueller plans to ask about topics be\u2026", "time": "Wed May 02 04:12:05 +0000 2018"}, {"source": {"lat": 41.873541, "lng": -87.6585, "name": "Chicago, IL"}, "destination": {"lat": 34.098663, "lng": -118.327996, "name": "Kanye West called slavery a choice. TMZ's Van Lathan gave a forceful and thoughtful rebuke.", "city": "Los Angeles", "state": "CA"}, "text": "RT @washingtonpost: Kanye West called slavery a choice. TMZ\u2019s Van Lathan gave a forceful \u2014 and thoughtful \u2014 rebuke. https://t.co/Dwa4OSROs4", "time": "Wed May 02 04:12:05 +0000 2018"}, {"source": {"lat": 41.873541, "lng": -87.6585, "name": "Chicago, IL"}, "destination": {"lat": 38.911477, "lng": -77.036207, "name": "Mueller raised possibility of presidential subpoena in meeting with Trump's legal team", "city": "Washington", "state": "DC"}, "text": "Trump has been told he CAN be compelled to testify through a Subpoena by Mueller Special Councils Office. Dowd had\u2026 https://t.co/3lh3Cy0DYs", "time": "Wed May 02 04:12:06 +0000 2018"}, {"source": {"lat": 26.316775, "lng": -80.245605, "name": "Parkland, FL"}, "destination": {"lat": 38.911477, "lng": -77.036207, "name": "Mueller raised possibility of presidential subpoena in meeting with Trump's legal team", "city": "Washington", "state": "DC"}, "text": "RT @MaddowBlog: \"With those details in hand, Trump lawyer Jay Sekulow compiled a list of 49 questions that the team believed the president\u2026", "time": "Wed May 02 04:12:06 +0000 2018"}, {"source": {"lat": 42.345737, "lng": -71.071228, "name": "Boston, MA"}, "destination": {"lat": 38.911477, "lng": -77.036207, "name": "Mueller raised possibility of presidential subpoena in meeting with Trump's legal team", "city": "Washington", "state": "DC"}, "text": "Kanye what?? \ud83e\udd26\u200d\u2642\ufe0f https://t.co/MjR5wArNzz", "time": "Wed May 02 04:12:07 +0000 2018"}, {"source": {"lat": 42.345737, "lng": -71.071228, "name": "Boston, MA"}, "destination": {"lat": 34.098663, "lng": -118.327996, "name": "Kanye West called slavery a choice. TMZ's Van Lathan gave a forceful and thoughtful rebuke.", "city": "Los Angeles", "state": "CA"}, "text": "RT @TMZ: Kanye West stirs up the TMZ newsroom over TRUMP, SLAVERY and FREE THOUGHT. There's A LOT more that went down ... and the fireworks\u2026", "time": "Wed May 02 04:12:09 +0000 2018"}, {"source": {"lat": 41.873541, "lng": -87.6585, "name": "Chicago, IL"}, "destination": {"lat": 38.911477, "lng": -77.036207, "name": "Mueller raised possibility of presidential subpoena in meeting with Trump's legal team", "city": "Washington", "state": "DC"}, "text": "RT @MaddowBlog: \"With those details in hand, Trump lawyer Jay Sekulow compiled a list of 49 questions that the team believed the president\u2026", "time": "Wed May 02 04:12:09 +0000 2018"}, {"source": {"lat": 42.345737, "lng": -71.071228, "name": "Boston, MA"}, "destination": {"lat": 38.911477, "lng": -77.036207, "name": "Mueller raised possibility of presidential subpoena in meeting with Trump's legal team", "city": "Washington", "state": "DC"}, "text": "RT @MalcolmNance: #Breaking Mueller told Trump lawyers he could subpoena Trump before Grand Jury if necessary. #Schadenfreudelicious https:\u2026", "time": "Wed May 02 04:12:10 +0000 2018"}, {"source": {"lat": 30.298267, "lng": -97.747886, "name": "Austin, TX"}, "destination": {"lat": 38.911477, "lng": -77.036207, "name": "Mueller raised possibility of presidential subpoena in meeting with Trump's legal team", "city": "Washington", "state": "DC"}, "text": "RT @aligiarc: https://t.co/akD64fU7tg\n\nIf this isn't enough evidence to convince you that we are in the middle of an attempted coup d'etat\u2026", "time": "Wed May 02 04:12:09 +0000 2018"}, {"source": {"lat": 26.316775, "lng": -80.245605, "name": "Parkland, FL"}, "destination": {"lat": 38.911477, "lng": -77.036207, "name": "Mueller raised possibility of presidential subpoena in meeting with Trump's legal team", "city": "Washington", "state": "DC"}, "text": "RT @baeElectronica: kanye omari west, the son of a black panther, whose mother participated in sit-ins, sat his black ass down at TMZ and s\u2026", "time": "Wed May 02 04:12:09 +0000 2018"}, {"source": {"lat": 29.750695, "lng": -95.391328, "name": "Houston, TX"}, "destination": {"lat": 38.911477, "lng": -77.036207, "name": "Mueller raised possibility of presidential subpoena in meeting with Trump's legal team", "city": "Washington", "state": "DC"}, "text": "RT @flex_sa: That's enough Mr West please no more today https://t.co/4dilsXMt3k", "time": "Wed May 02 04:12:10 +0000 2018"}, {"source": {"lat": 26.316775, "lng": -80.245605, "name": "Parkland, FL"}, "destination": {"lat": 34.098663, "lng": -118.327996, "name": "Kanye West called slavery a choice. TMZ's Van Lathan gave a forceful and thoughtful rebuke.", "city": "Los Angeles", "state": "CA"}, "text": "RT @TMZ: Kanye West stirs up the TMZ newsroom over TRUMP, SLAVERY and FREE THOUGHT. There's A LOT more that went down ... and the fireworks\u2026", "time": "Wed May 02 04:12:10 +0000 2018"}, {"source": {"lat": 33.749366, "lng": -84.417179, "name": "Atlanta, GA"}, "destination": {"lat": 38.911477, "lng": -77.036207, "name": "Mueller raised possibility of presidential subpoena in meeting with Trump's legal team", "city": "Washington", "state": "DC"}, "text": "RT @aligiarc: https://t.co/akD64fU7tg\n\nIf this isn't enough evidence to convince you that we are in the middle of an attempted coup d'etat\u2026", "time": "Wed May 02 04:12:09 +0000 2018"}, {"source": {"lat": 38.355275, "lng": -81.648009, "name": "Charleston, WV"}, "destination": {"lat": 34.098663, "lng": -118.327996, "name": "Kanye West called slavery a choice. TMZ's Van Lathan gave a forceful and thoughtful rebuke.", "city": "Los Angeles", "state": "CA"}, "text": "RT @CNNTonight: .@Shermichael_ on Kanye West's slavery \"sounds like a choice\" remarks: What he said is not freethinking. There's nothing ge\u2026", "time": "Wed May 02 04:12:11 +0000 2018"}, {"source": {"lat": 38.911477, "lng": -77.036207, "name": "Washington, DC"}, "destination": {"lat": 38.911477, "lng": -77.036207, "name": "Mueller raised possibility of presidential subpoena in meeting with Trump's legal team", "city": "Washington", "state": "DC"}, "text": "RT @kylegriffin1: AP names John Dowd as the source of their Mueller subpoena threat report. https://t.co/qm1Uemdm9v", "time": "Wed May 02 04:12:11 +0000 2018"}, {"source": {"lat": 38.589062, "lng": -121.476554, "name": "Sacramento, CA"}, "destination": {"lat": 38.911477, "lng": -77.036207, "name": "Mueller raised possibility of presidential subpoena in meeting with Trump's legal team", "city": "Washington", "state": "DC"}, "text": "RT @CyrusToulabi: #BREAKING: MUELLER THREATENED TO SUBPOENA TRUMP IN TENSE NEGOTIATIONS WITH HIS LEGAL TEAM IN MARCH.\n\nJohn Dowd retorted:\u2026", "time": "Wed May 02 04:12:12 +0000 2018"}, {"source": {"lat": 30.298267, "lng": -97.747886, "name": "Austin, TX"}, "destination": {"lat": 38.911477, "lng": -77.036207, "name": "Mueller raised possibility of presidential subpoena in meeting with Trump's legal team", "city": "Washington", "state": "DC"}, "text": "RT @baeElectronica: kanye omari west, the son of a black panther, whose mother participated in sit-ins, sat his black ass down at TMZ and s\u2026", "time": "Wed May 02 04:12:13 +0000 2018"}, {"source": {"lat": 26.316775, "lng": -80.245605, "name": "Parkland, FL"}, "destination": {"lat": 38.911477, "lng": -77.036207, "name": "Mueller raised possibility of presidential subpoena in meeting with Trump's legal team", "city": "Washington", "state": "DC"}, "text": "RT @baeElectronica: kanye omari west, the son of a black panther, whose mother participated in sit-ins, sat his black ass down at TMZ and s\u2026", "time": "Wed May 02 04:12:13 +0000 2018"}, {"source": {"lat": 26.316775, "lng": -80.245605, "name": "Parkland, FL"}, "destination": {"lat": 38.911477, "lng": -77.036207, "name": "Mueller raised possibility of presidential subpoena in meeting with Trump's legal team", "city": "Washington", "state": "DC"}, "text": "West's wild words stir again: Kanye calls slavery a 'choice' (from @AP) https://t.co/ap8tE8txsJ", "time": "Wed May 02 04:12:14 +0000 2018"}, {"source": {"lat": 33.749366, "lng": -84.417179, "name": "Atlanta, GA"}, "destination": {"lat": 34.098663, "lng": -118.327996, "name": "Kanye West called slavery a choice. TMZ's Van Lathan gave a forceful and thoughtful rebuke.", "city": "Los Angeles", "state": "CA"}, "text": "RT @stephenasmith: Don\u2019t usually get caught up in commenting about stuff like this but I saw what Kanye West said and I was ASHAMED. 400 Ye\u2026", "time": "Wed May 02 04:12:14 +0000 2018"}, {"source": {"lat": 41.873541, "lng": -87.6585, "name": "Chicago, IL"}, "destination": {"lat": 38.911477, "lng": -77.036207, "name": "Mueller raised possibility of presidential subpoena in meeting with Trump's legal team", "city": "Washington", "state": "DC"}, "text": "To avoid any illegal impeachment by Dems, conservatives must get out in droves for mid-terms! https://t.co/3Brdi8MJC4", "time": "Wed May 02 04:12:15 +0000 2018"}, {"source": {"lat": 33.749366, "lng": -84.417179, "name": "Atlanta, GA"}, "destination": {"lat": 38.911477, "lng": -77.036207, "name": "Mueller raised possibility of presidential subpoena in meeting with Trump's legal team", "city": "Washington", "state": "DC"}, "text": "Thread by @_VachelLindsay_: \"1. 'Mueller threatens Trump with subpoena'. Yeah, sure he did. OK, I think I've worked\u2026 https://t.co/jao98DLTTu", "time": "Wed May 02 04:12:15 +0000 2018"}, {"source": {"lat": 34.098663, "lng": -118.327996, "name": "Los Angeles, CA"}, "destination": {"lat": 38.911477, "lng": -77.036207, "name": "Mueller raised possibility of presidential subpoena in meeting with Trump's legal team", "city": "Washington", "state": "DC"}, "text": "RT @W7VOA: \u201cMueller\u2019s warning \u2014 the first time he is known to have mentioned a possible subpoena to Trump\u2019s legal team \u2014 spurred a sharp re\u2026", "time": "Wed May 02 04:12:16 +0000 2018"}, {"source": {"lat": 40.648196, "lng": -73.997564, "name": "New York, NY"}, "destination": {"lat": 34.098663, "lng": -118.327996, "name": "Kanye West called slavery a choice. TMZ's Van Lathan gave a forceful and thoughtful rebuke.", "city": "Los Angeles", "state": "CA"}, "text": "RT @Matsamon: WOW.. Kanye West just told the TMZ newsroom that 400 years of slavery was a choice for black people. \n\nTMZ employee Van Latha\u2026", "time": "Wed May 02 04:12:16 +0000 2018"}, {"source": {"lat": 34.098663, "lng": -118.327996, "name": "Los Angeles, CA"}, "destination": {"lat": 38.911477, "lng": -77.036207, "name": "Mueller raised possibility of presidential subpoena in meeting with Trump's legal team", "city": "Washington", "state": "DC"}, "text": "RT @kylegriffin1: AP names John Dowd as the source of their Mueller subpoena threat report. https://t.co/qm1Uemdm9v", "time": "Wed May 02 04:12:16 +0000 2018"}, {"source": {"lat": 38.589062, "lng": -121.476554, "name": "Sacramento, CA"}, "destination": {"lat": 34.098663, "lng": -118.327996, "name": "Kanye West called slavery a choice. TMZ's Van Lathan gave a forceful and thoughtful rebuke.", "city": "Los Angeles", "state": "CA"}, "text": "RT @washingtonpost: Kanye West called slavery a choice. TMZ\u2019s Van Lathan gave a forceful \u2014 and thoughtful \u2014 rebuke. https://t.co/Dwa4OSROs4", "time": "Wed May 02 04:12:16 +0000 2018"}, {"source": {"lat": 40.648196, "lng": -73.997564, "name": "New York, NY"}, "destination": {"lat": 26.316775, "lng": -80.245605, "name": "Arrested: Zachary Cruz, brother of Parkland school shooter", "city": "Parkland", "state": "FL"}, "text": "RT @AlbertoRodNews: URGENTE | Diario Sun-Sentinel: Zachary Cruz, de 18 a\u00f1os, recibi\u00f3 seis meses de libertad condicional y una serie de rest\u2026", "time": "Wed May 02 04:12:16 +0000 2018"}, {"source": {"lat": 34.098663, "lng": -118.327996, "name": "Los Angeles, CA"}, "destination": {"lat": 34.098663, "lng": -118.327996, "name": "Kanye West called slavery a choice. TMZ's Van Lathan gave a forceful and thoughtful rebuke.", "city": "Los Angeles", "state": "CA"}, "text": "RT @Matsamon: WOW.. Kanye West just told the TMZ newsroom that 400 years of slavery was a choice for black people. \n\nTMZ employee Van Latha\u2026", "time": "Wed May 02 04:12:17 +0000 2018"}, {"source": {"lat": 30.298267, "lng": -97.747886, "name": "Austin, TX"}, "destination": {"lat": 38.911477, "lng": -77.036207, "name": "Mueller raised possibility of presidential subpoena in meeting with Trump's legal team", "city": "Washington", "state": "DC"}, "text": "RT @TheRickyDavila: Make no mistake, Robert Mueller is prepared and has prepared his investigation for any and every scenario.\nhttps://t.co\u2026", "time": "Wed May 02 04:12:17 +0000 2018"}, {"source": {"lat": 41.873541, "lng": -87.6585, "name": "Chicago, IL"}, "destination": {"lat": 38.911477, "lng": -77.036207, "name": "Mueller raised possibility of presidential subpoena in meeting with Trump's legal team", "city": "Washington", "state": "DC"}, "text": "RT @1620Vet: The Washington Post is now reporting that \"Trump lawyer Jay Sekulow compiled the list of 49 questions that the team believed t\u2026", "time": "Wed May 02 04:12:17 +0000 2018"}, {"source": {"lat": 33.749366, "lng": -84.417179, "name": "Atlanta, GA"}, "destination": {"lat": 38.911477, "lng": -77.036207, "name": "Mueller raised possibility of presidential subpoena in meeting with Trump's legal team", "city": "Washington", "state": "DC"}, "text": "Slavery in other parts of the world as well years before the slave traders went to Africa. I doubt, at that time, t\u2026 https://t.co/F7Qd74k02q", "time": "Wed May 02 04:12:17 +0000 2018"}, {"source": {"lat": 38.911477, "lng": -77.036207, "name": "Washington, DC"}, "destination": {"lat": 38.911477, "lng": -77.036207, "name": "Mueller raised possibility of presidential subpoena in meeting with Trump's legal team", "city": "Washington", "state": "DC"}, "text": "RT @baeElectronica: kanye omari west, the son of a black panther, whose mother participated in sit-ins, sat his black ass down at TMZ and s\u2026", "time": "Wed May 02 04:12:18 +0000 2018"}, {"source": {"lat": 29.750695, "lng": -95.391328, "name": "Houston, TX"}, "destination": {"lat": 34.098663, "lng": -118.327996, "name": "Kanye West called slavery a choice. TMZ's Van Lathan gave a forceful and thoughtful rebuke.", "city": "Los Angeles", "state": "CA"}, "text": "RT @stephenasmith: Don\u2019t usually get caught up in commenting about stuff like this but I saw what Kanye West said and I was ASHAMED. 400 Ye\u2026", "time": "Wed May 02 04:12:18 +0000 2018"}, {"source": {"lat": 38.911477, "lng": -77.036207, "name": "Washington, DC"}, "destination": {"lat": 38.911477, "lng": -77.036207, "name": "Mueller raised possibility of presidential subpoena in meeting with Trump's legal team", "city": "Washington", "state": "DC"}, "text": "@kanyewest is so ass bubble deep in Calabasas his conception of maids and nannies is the same as what he views slav\u2026 https://t.co/rVDrwsTtpi", "time": "Wed May 02 04:12:19 +0000 2018"}, {"source": {"lat": 26.316775, "lng": -80.245605, "name": "Parkland, FL"}, "destination": {"lat": 38.911477, "lng": -77.036207, "name": "Mueller raised possibility of presidential subpoena in meeting with Trump's legal team", "city": "Washington", "state": "DC"}, "text": "Parkland shooting suspect Nikolas Cruz's brother, Zachary, arrested - Fox News https://t.co/ApRuxCvkPS", "time": "Wed May 02 04:12:19 +0000 2018"}, {"source": {"lat": 30.298267, "lng": -97.747886, "name": "Austin, TX"}, "destination": {"lat": 38.911477, "lng": -77.036207, "name": "Mueller raised possibility of presidential subpoena in meeting with Trump's legal team", "city": "Washington", "state": "DC"}, "text": "RT @AmyOddo: Did I just hear @AC360 correctly? Mueller issuing Trump subpoena!!!! https://t.co/kwz7jdk34H", "time": "Wed May 02 04:12:19 +0000 2018"}, {"source": {"lat": 30.298267, "lng": -97.747886, "name": "Austin, TX"}, "destination": {"lat": 38.911477, "lng": -77.036207, "name": "Mueller raised possibility of presidential subpoena in meeting with Trump's legal team", "city": "Washington", "state": "DC"}, "text": "Unreal @kanyewest you have completely lost your mind bro. How dare you say that slavery was a choice!! What a total\u2026 https://t.co/zNiCRIDDZ5", "time": "Wed May 02 04:12:20 +0000 2018"}, {"source": {"lat": 29.750695, "lng": -95.391328, "name": "Houston, TX"}, "destination": {"lat": 38.911477, "lng": -77.036207, "name": "Mueller raised possibility of presidential subpoena in meeting with Trump's legal team", "city": "Washington", "state": "DC"}, "text": "RT @tribelaw: The news tonite is that Mueller raised the prospect of issuing a subpoena to force Trump to testify under oath. If that occur\u2026", "time": "Wed May 02 04:12:20 +0000 2018"}, {"source": {"lat": 34.098663, "lng": -118.327996, "name": "Los Angeles, CA"}, "destination": {"lat": 38.911477, "lng": -77.036207, "name": "Mueller raised possibility of presidential subpoena in meeting with Trump's legal team", "city": "Washington", "state": "DC"}, "text": "RT @owillis: Takes a black man acting the fool for cable news to do an all black panel https://t.co/h85ub1xJet", "time": "Wed May 02 04:12:20 +0000 2018"}, {"source": {"lat": 26.316775, "lng": -80.245605, "name": "Parkland, FL"}, "destination": {"lat": 34.098663, "lng": -118.327996, "name": "Kanye West called slavery a choice. TMZ's Van Lathan gave a forceful and thoughtful rebuke.", "city": "Los Angeles", "state": "CA"}, "text": "Kanye West en roue libre sur @TMZ \u00ab\u00a0L\u2019esclavage \u00e9tait un choix\u00a0\u00bb \u00ab\u00a0J\u2019adore Trump\u00a0\u00bb \ud83d\ude31\ud83d\ude31\ud83d\ude31 https://t.co/HJCHXnHVDC", "time": "Wed May 02 04:12:20 +0000 2018"}, {"source": {"lat": 38.589062, "lng": -121.476554, "name": "Sacramento, CA"}, "destination": {"lat": 34.098663, "lng": -118.327996, "name": "Kanye West called slavery a choice. TMZ's Van Lathan gave a forceful and thoughtful rebuke.", "city": "Los Angeles", "state": "CA"}, "text": "RT @MJFinesseLover: Kanye West's interview on TMZ was absolutely crazy as fuck. I can't fucking believe this shit. This nigga said 400 year\u2026", "time": "Wed May 02 04:12:20 +0000 2018"}, {"source": {"lat": 38.355275, "lng": -81.648009, "name": "Charleston, WV"}, "destination": {"lat": 38.911477, "lng": -77.036207, "name": "Mueller raised possibility of presidential subpoena in meeting with Trump's legal team", "city": "Washington", "state": "DC"}, "text": "Former federal prosecutor says one of Trump's few options in the face of a grand-jury subpoena from Mueller could c\u2026 https://t.co/BgBQEA4Ohv", "time": "Wed May 02 04:12:20 +0000 2018"}, {"source": {"lat": 34.098663, "lng": -118.327996, "name": "Los Angeles, CA"}, "destination": {"lat": 34.098663, "lng": -118.327996, "name": "Kanye West called slavery a choice. TMZ's Van Lathan gave a forceful and thoughtful rebuke.", "city": "Los Angeles", "state": "CA"}, "text": "RT @MyNameIsSam1776: How slavery should have went according to Kanye West https://t.co/kFzoIV3xGu", "time": "Wed May 02 04:12:22 +0000 2018"}, {"source": {"lat": 33.749366, "lng": -84.417179, "name": "Atlanta, GA"}, "destination": {"lat": 34.098663, "lng": -118.327996, "name": "Kanye West called slavery a choice. TMZ's Van Lathan gave a forceful and thoughtful rebuke.", "city": "Los Angeles", "state": "CA"}, "text": "RT @cieradagoat: Kanye West just said slavery was a choice I- https://t.co/CDmN9ePozS", "time": "Wed May 02 04:12:22 +0000 2018"}, {"source": {"lat": 38.589062, "lng": -121.476554, "name": "Sacramento, CA"}, "destination": {"lat": 38.911477, "lng": -77.036207, "name": "Mueller raised possibility of presidential subpoena in meeting with Trump's legal team", "city": "Washington", "state": "DC"}, "text": "RT @joncoopertweets: Special counsel Robert Mueller suggested to Donald Trump's lawyers earlier this year that he would subpoena Trump to a\u2026", "time": "Wed May 02 04:12:22 +0000 2018"}, {"source": {"lat": 38.589062, "lng": -121.476554, "name": "Sacramento, CA"}, "destination": {"lat": 34.098663, "lng": -118.327996, "name": "Kanye West called slavery a choice. TMZ's Van Lathan gave a forceful and thoughtful rebuke.", "city": "Los Angeles", "state": "CA"}, "text": "RT @IamAkademiks: Kanye West Tweaking....... I aint really care that he fw w/ trump cuz I dont look to entertainers for political opinions\u2026", "time": "Wed May 02 04:12:23 +0000 2018"}, {"source": {"lat": 42.345737, "lng": -71.071228, "name": "Boston, MA"}, "destination": {"lat": 38.911477, "lng": -77.036207, "name": "Mueller raised possibility of presidential subpoena in meeting with Trump's legal team", "city": "Washington", "state": "DC"}, "text": "RT @baeElectronica: kanye omari west, the son of a black panther, whose mother participated in sit-ins, sat his black ass down at TMZ and s\u2026", "time": "Wed May 02 04:12:24 +0000 2018"}, {"source": {"lat": 33.749366, "lng": -84.417179, "name": "Atlanta, GA"}, "destination": {"lat": 38.911477, "lng": -77.036207, "name": "Mueller raised possibility of presidential subpoena in meeting with Trump's legal team", "city": "Washington", "state": "DC"}, "text": "BREAKING = BULLSHIT \n\nAt this point...\ud83d\udc46 https://t.co/sEliPI4ZdP", "time": "Wed May 02 04:12:24 +0000 2018"}, {"source": {"lat": 30.298267, "lng": -97.747886, "name": "Austin, TX"}, "destination": {"lat": 38.911477, "lng": -77.036207, "name": "Mueller raised possibility of presidential subpoena in meeting with Trump's legal team", "city": "Washington", "state": "DC"}, "text": "RT @RealMAGASteve: BREAKING: Mueller threatens Trump with a subpoena if he fails to help him in Russia probe.\n\nThe witch-hunt continues. Mu\u2026", "time": "Wed May 02 04:12:24 +0000 2018"}, {"source": {"lat": 33.749366, "lng": -84.417179, "name": "Atlanta, GA"}, "destination": {"lat": 34.098663, "lng": -118.327996, "name": "Kanye West called slavery a choice. TMZ's Van Lathan gave a forceful and thoughtful rebuke.", "city": "Los Angeles", "state": "CA"}, "text": "RT @CNN: Kanye West just said 400 years of slavery was a choice https://t.co/gMtmMfRnMI https://t.co/rF54ovuhgE", "time": "Wed May 02 04:12:24 +0000 2018"}, {"source": {"lat": 30.298267, "lng": -97.747886, "name": "Austin, TX"}, "destination": {"lat": 38.911477, "lng": -77.036207, "name": "Mueller raised possibility of presidential subpoena in meeting with Trump's legal team", "city": "Washington", "state": "DC"}, "text": "RT @owillis: Takes a black man acting the fool for cable news to do an all black panel https://t.co/h85ub1xJet", "time": "Wed May 02 04:12:25 +0000 2018"}, {"source": {"lat": 40.648196, "lng": -73.997564, "name": "New York, NY"}, "destination": {"lat": 34.098663, "lng": -118.327996, "name": "Kanye West called slavery a choice. TMZ's Van Lathan gave a forceful and thoughtful rebuke.", "city": "Los Angeles", "state": "CA"}, "text": "RT @Matsamon: WOW.. Kanye West just told the TMZ newsroom that 400 years of slavery was a choice for black people. \n\nTMZ employee Van Latha\u2026", "time": "Wed May 02 04:12:25 +0000 2018"}, {"source": {"lat": 38.911477, "lng": -77.036207, "name": "Washington, DC"}, "destination": {"lat": 34.098663, "lng": -118.327996, "name": "Kanye West called slavery a choice. TMZ's Van Lathan gave a forceful and thoughtful rebuke.", "city": "Los Angeles", "state": "CA"}, "text": "RT @jbouie: [scene: 2018 racial draft]\n\n\u201cwe the black community will accept michael mcdonald in exchange for kanye west\u201d https://t.co/y3Hc0\u2026", "time": "Wed May 02 04:12:25 +0000 2018"}, {"source": {"lat": 38.911477, "lng": -77.036207, "name": "Washington, DC"}, "destination": {"lat": 34.098663, "lng": -118.327996, "name": "Kanye West called slavery a choice. TMZ's Van Lathan gave a forceful and thoughtful rebuke.", "city": "Los Angeles", "state": "CA"}, "text": "RT @TMZ: Kanye West stirs up the TMZ newsroom over TRUMP, SLAVERY and FREE THOUGHT. There's A LOT more that went down ... and the fireworks\u2026", "time": "Wed May 02 04:12:26 +0000 2018"}, {"source": {"lat": 30.298267, "lng": -97.747886, "name": "Austin, TX"}, "destination": {"lat": 38.911477, "lng": -77.036207, "name": "Mueller raised possibility of presidential subpoena in meeting with Trump's legal team", "city": "Washington", "state": "DC"}, "text": "RT @baeElectronica: kanye omari west, the son of a black panther, whose mother participated in sit-ins, sat his black ass down at TMZ and s\u2026", "time": "Wed May 02 04:12:26 +0000 2018"}, {"source": {"lat": 38.355275, "lng": -81.648009, "name": "Charleston, WV"}, "destination": {"lat": 34.098663, "lng": -118.327996, "name": "Kanye West called slavery a choice. TMZ's Van Lathan gave a forceful and thoughtful rebuke.", "city": "Los Angeles", "state": "CA"}, "text": "RT @MJFinesseLover: Kanye West's interview on TMZ was absolutely crazy as fuck. I can't fucking believe this shit. This nigga said 400 year\u2026", "time": "Wed May 02 04:12:27 +0000 2018"}, {"source": {"lat": 41.873541, "lng": -87.6585, "name": "Chicago, IL"}, "destination": {"lat": 34.098663, "lng": -118.327996, "name": "Kanye West called slavery a choice. TMZ's Van Lathan gave a forceful and thoughtful rebuke.", "city": "Los Angeles", "state": "CA"}, "text": "RT @TMZ: Kanye West stirs up the TMZ newsroom over TRUMP, SLAVERY and FREE THOUGHT. There's A LOT more that went down ... and the fireworks\u2026", "time": "Wed May 02 04:12:27 +0000 2018"}, {"source": {"lat": 38.355275, "lng": -81.648009, "name": "Charleston, WV"}, "destination": {"lat": 34.098663, "lng": -118.327996, "name": "Kanye West called slavery a choice. TMZ's Van Lathan gave a forceful and thoughtful rebuke.", "city": "Los Angeles", "state": "CA"}, "text": "RT @stephenasmith: Don\u2019t usually get caught up in commenting about stuff like this but I saw what Kanye West said and I was ASHAMED. 400 Ye\u2026", "time": "Wed May 02 04:12:27 +0000 2018"}, {"source": {"lat": 26.316775, "lng": -80.245605, "name": "Parkland, FL"}, "destination": {"lat": 34.098663, "lng": -118.327996, "name": "Kanye West called slavery a choice. TMZ's Van Lathan gave a forceful and thoughtful rebuke.", "city": "Los Angeles", "state": "CA"}, "text": "RT @DavidCayJ: Kanye West is an idiot, a shameless ignorant idiot. https://t.co/SFvsZfWnUh", "time": "Wed May 02 04:12:27 +0000 2018"}, {"source": {"lat": 30.298267, "lng": -97.747886, "name": "Austin, TX"}, "destination": {"lat": 38.911477, "lng": -77.036207, "name": "Mueller raised possibility of presidential subpoena in meeting with Trump's legal team", "city": "Washington", "state": "DC"}, "text": "RT @owillis: Takes a black man acting the fool for cable news to do an all black panel https://t.co/h85ub1xJet", "time": "Wed May 02 04:12:27 +0000 2018"}, {"source": {"lat": 38.589062, "lng": -121.476554, "name": "Sacramento, CA"}, "destination": {"lat": 34.098663, "lng": -118.327996, "name": "Kanye West called slavery a choice. TMZ's Van Lathan gave a forceful and thoughtful rebuke.", "city": "Los Angeles", "state": "CA"}, "text": "RT @stephenasmith: Don\u2019t usually get caught up in commenting about stuff like this but I saw what Kanye West said and I was ASHAMED. 400 Ye\u2026", "time": "Wed May 02 04:12:28 +0000 2018"}, {"source": {"lat": 30.298267, "lng": -97.747886, "name": "Austin, TX"}, "destination": {"lat": 38.911477, "lng": -77.036207, "name": "Mueller raised possibility of presidential subpoena in meeting with Trump's legal team", "city": "Washington", "state": "DC"}, "text": "RT @maddow: Got to love a guest who provides source materials for reference and further reading! https://t.co/Y8KUHbV9YE", "time": "Wed May 02 04:12:29 +0000 2018"}, {"source": {"lat": 40.648196, "lng": -73.997564, "name": "New York, NY"}, "destination": {"lat": 34.098663, "lng": -118.327996, "name": "Kanye West called slavery a choice. TMZ's Van Lathan gave a forceful and thoughtful rebuke.", "city": "Los Angeles", "state": "CA"}, "text": "RT @DavidCayJ: Kanye West is an idiot, a shameless ignorant idiot. https://t.co/SFvsZfWnUh", "time": "Wed May 02 04:12:29 +0000 2018"}, {"source": {"lat": 29.750695, "lng": -95.391328, "name": "Houston, TX"}, "destination": {"lat": 38.911477, "lng": -77.036207, "name": "Mueller raised possibility of presidential subpoena in meeting with Trump's legal team", "city": "Washington", "state": "DC"}, "text": "RT @Kokomothegreat: BREAKING:\n\nThe #MuellerQuestions released last night were made from notes Jay Sekulow made after he and Dowd met with M\u2026", "time": "Wed May 02 04:12:29 +0000 2018"}, {"source": {"lat": 38.355275, "lng": -81.648009, "name": "Charleston, WV"}, "destination": {"lat": 34.098663, "lng": -118.327996, "name": "Kanye West called slavery a choice. TMZ's Van Lathan gave a forceful and thoughtful rebuke.", "city": "Los Angeles", "state": "CA"}, "text": "I think #Kanye West is just practicing and preparing to be the next President. Of course as a #Republican. https://t.co/HMBUpGmjs5", "time": "Wed May 02 04:12:29 +0000 2018"}, {"source": {"lat": 29.750695, "lng": -95.391328, "name": "Houston, TX"}, "destination": {"lat": 38.911477, "lng": -77.036207, "name": "Mueller raised possibility of presidential subpoena in meeting with Trump's legal team", "city": "Washington", "state": "DC"}, "text": "RT @TheRickyDavila: Make no mistake, Robert Mueller is prepared and has prepared his investigation for any and every scenario.\nhttps://t.co\u2026", "time": "Wed May 02 04:12:30 +0000 2018"}, {"source": {"lat": 42.345737, "lng": -71.071228, "name": "Boston, MA"}, "destination": {"lat": 38.911477, "lng": -77.036207, "name": "Mueller raised possibility of presidential subpoena in meeting with Trump's legal team", "city": "Washington", "state": "DC"}, "text": "\ud83d\ude33 https://t.co/opxaPrRyxh", "time": "Wed May 02 04:12:30 +0000 2018"}, {"source": {"lat": 26.316775, "lng": -80.245605, "name": "Parkland, FL"}, "destination": {"lat": 34.098663, "lng": -118.327996, "name": "Kanye West called slavery a choice. TMZ's Van Lathan gave a forceful and thoughtful rebuke.", "city": "Los Angeles", "state": "CA"}, "text": "RT @JRehling: Kanye West: \"400 years of slavery\u2026 sounds like a choice.\"\n\nThere are books about Nat Turner and John Brown and Harriet Tubman\u2026", "time": "Wed May 02 04:12:30 +0000 2018"}, {"source": {"lat": 30.298267, "lng": -97.747886, "name": "Austin, TX"}, "destination": {"lat": 34.098663, "lng": -118.327996, "name": "Kanye West called slavery a choice. TMZ's Van Lathan gave a forceful and thoughtful rebuke.", "city": "Los Angeles", "state": "CA"}, "text": "RT @ChrisJZullo: Kanye West thinks slavery was a choice \ud83e\udd2f. This is an absolutely out of touch commentary. No one ever chose mentally to be\u2026", "time": "Wed May 02 04:12:31 +0000 2018"}, {"source": {"lat": 38.589062, "lng": -121.476554, "name": "Sacramento, CA"}, "destination": {"lat": 34.098663, "lng": -118.327996, "name": "Kanye West called slavery a choice. TMZ's Van Lathan gave a forceful and thoughtful rebuke.", "city": "Los Angeles", "state": "CA"}, "text": "RT @ChriStylezz: Kanye West got on TMZ live and said 400 years of slavery was a choice for black people. He said they had a choice. Y'all..\u2026", "time": "Wed May 02 04:12:31 +0000 2018"}, {"source": {"lat": 29.750695, "lng": -95.391328, "name": "Houston, TX"}, "destination": {"lat": 34.098663, "lng": -118.327996, "name": "Kanye West called slavery a choice. TMZ's Van Lathan gave a forceful and thoughtful rebuke.", "city": "Los Angeles", "state": "CA"}, "text": "RT @Vrmicious_knid: Kanye West is out here saying that slavery sounded like a choice. How dare you trivialize slavery and say that it was a\u2026", "time": "Wed May 02 04:12:31 +0000 2018"}, {"source": {"lat": 33.749366, "lng": -84.417179, "name": "Atlanta, GA"}, "destination": {"lat": 34.098663, "lng": -118.327996, "name": "Kanye West called slavery a choice. TMZ's Van Lathan gave a forceful and thoughtful rebuke.", "city": "Los Angeles", "state": "CA"}, "text": "So is Kanye West officially a batshit crazy white woman yelling at minorities from her lawn ? \u201cI was addicted to op\u2026 https://t.co/MYuTeCmrY3", "time": "Wed May 02 04:12:32 +0000 2018"}, {"source": {"lat": 26.316775, "lng": -80.245605, "name": "Parkland, FL"}, "destination": {"lat": 34.098663, "lng": -118.327996, "name": "Kanye West called slavery a choice. TMZ's Van Lathan gave a forceful and thoughtful rebuke.", "city": "Los Angeles", "state": "CA"}, "text": "RT @TrialLawyerRich: Kanye West today said slavery \"was a choice.\" He is wrong. Slavery was a brutal, cruel abomination. People in Africa w\u2026", "time": "Wed May 02 04:12:32 +0000 2018"}, {"source": {"lat": 38.589062, "lng": -121.476554, "name": "Sacramento, CA"}, "destination": {"lat": 38.911477, "lng": -77.036207, "name": "Mueller raised possibility of presidential subpoena in meeting with Trump's legal team", "city": "Washington", "state": "DC"}, "text": "RT @AHamiltonSpirit: Also it occurs to me Guiliani leaked so Trump can get input and advice from anyone now.\n#TrumpRussia #impeachtrump #ma\u2026", "time": "Wed May 02 04:12:32 +0000 2018"}, {"source": {"lat": 30.298267, "lng": -97.747886, "name": "Austin, TX"}, "destination": {"lat": 34.098663, "lng": -118.327996, "name": "Kanye West called slavery a choice. TMZ's Van Lathan gave a forceful and thoughtful rebuke.", "city": "Los Angeles", "state": "CA"}, "text": "Kanye West is doing a good  distraction job. https://t.co/Gjncu1Rjvr", "time": "Wed May 02 04:12:32 +0000 2018"}, {"source": {"lat": 29.750695, "lng": -95.391328, "name": "Houston, TX"}, "destination": {"lat": 38.355275, "lng": -81.648009, "name": "Cocaine Mitch': This West Virginia Senate GOP candidate takes anti-establishment politics off the rails", "city": "Charleston", "state": "WV"}, "text": "No One Knows Who's Spending Millions on the West Virginia Senate Race - Daily Beast https://t.co/Of7aWfj75f", "time": "Wed May 02 04:12:32 +0000 2018"}, {"source": {"lat": 29.750695, "lng": -95.391328, "name": "Houston, TX"}, "destination": {"lat": 34.098663, "lng": -118.327996, "name": "Kanye West called slavery a choice. TMZ's Van Lathan gave a forceful and thoughtful rebuke.", "city": "Los Angeles", "state": "CA"}, "text": "RT @EdKrassen: Kanye West just said that \"slavery for 400 years\" \"sounds like a choice\".\n\nNo one chooses to be beaten mercilessly, auctione\u2026", "time": "Wed May 02 04:12:32 +0000 2018"}, {"source": {"lat": 34.098663, "lng": -118.327996, "name": "Los Angeles, CA"}, "destination": {"lat": 38.911477, "lng": -77.036207, "name": "Mueller raised possibility of presidential subpoena in meeting with Trump's legal team", "city": "Washington", "state": "DC"}, "text": "RT @grantstern: As @JoyceWhiteVance explained, Mueller wouldn't pursue a #TrumpRussia grand jury subpoena against the President without con\u2026", "time": "Wed May 02 04:12:33 +0000 2018"}, {"source": {"lat": 38.911477, "lng": -77.036207, "name": "Washington, DC"}, "destination": {"lat": 38.911477, "lng": -77.036207, "name": "Mueller raised possibility of presidential subpoena in meeting with Trump's legal team", "city": "Washington", "state": "DC"}, "text": "RT @essenviews: Mueller Dropped The Hammer and Threatened Trump With A Subpoena. Mueller isn't playing. As Trump team was engaged in discus\u2026", "time": "Wed May 02 04:12:33 +0000 2018"}, {"source": {"lat": 34.098663, "lng": -118.327996, "name": "Los Angeles, CA"}, "destination": {"lat": 34.098663, "lng": -118.327996, "name": "Kanye West called slavery a choice. TMZ's Van Lathan gave a forceful and thoughtful rebuke.", "city": "Los Angeles", "state": "CA"}, "text": "RT @TMZ: Kanye West stirs up the TMZ newsroom over TRUMP, SLAVERY and FREE THOUGHT. There's A LOT more that went down ... and the fireworks\u2026", "time": "Wed May 02 04:12:34 +0000 2018"}, {"source": {"lat": 40.648196, "lng": -73.997564, "name": "New York, NY"}, "destination": {"lat": 26.316775, "lng": -80.245605, "name": "Arrested: Zachary Cruz, brother of Parkland school shooter", "city": "Parkland", "state": "FL"}, "text": "RT @AlbertoRodNews: URGENTE | Diario Sun-Sentinel: Emiten orden de arresto contra Zachary Cruz, el hermano menor del autor de la masacre de\u2026", "time": "Wed May 02 04:12:34 +0000 2018"}, {"source": {"lat": 40.648196, "lng": -73.997564, "name": "New York, NY"}, "destination": {"lat": 34.098663, "lng": -118.327996, "name": "Kanye West called slavery a choice. TMZ's Van Lathan gave a forceful and thoughtful rebuke.", "city": "Los Angeles", "state": "CA"}, "text": "RT @Matsamon: WOW.. Kanye West just told the TMZ newsroom that 400 years of slavery was a choice for black people. \n\nTMZ employee Van Latha\u2026", "time": "Wed May 02 04:12:35 +0000 2018"}, {"source": {"lat": 38.589062, "lng": -121.476554, "name": "Sacramento, CA"}, "destination": {"lat": 34.098663, "lng": -118.327996, "name": "Kanye West called slavery a choice. TMZ's Van Lathan gave a forceful and thoughtful rebuke.", "city": "Los Angeles", "state": "CA"}, "text": "@Chloe_Hilliard @VanLathan Kanye West made it clear he supports Donald Trump. \n\nKanye West said slavery was a choic\u2026 https://t.co/oxnpzzmugj", "time": "Wed May 02 04:12:35 +0000 2018"}, {"source": {"lat": 41.873541, "lng": -87.6585, "name": "Chicago, IL"}, "destination": {"lat": 38.911477, "lng": -77.036207, "name": "Mueller raised possibility of presidential subpoena in meeting with Trump's legal team", "city": "Washington", "state": "DC"}, "text": "RT @bongo_xxx: Wait. Wait. Wait.\nTrump's lawyer made up the list of questions that Mueller might ask that made Trump so furious that he wen\u2026", "time": "Wed May 02 04:12:35 +0000 2018"}, {"source": {"lat": 34.098663, "lng": -118.327996, "name": "Los Angeles, CA"}, "destination": {"lat": 34.098663, "lng": -118.327996, "name": "Kanye West called slavery a choice. TMZ's Van Lathan gave a forceful and thoughtful rebuke.", "city": "Los Angeles", "state": "CA"}, "text": "RT @Mediaite: Don Lemon Rips Kanye West For 'Embarrassing Himself' Over Slavery Comments: 'He Should Read!' https://t.co/xl6onLUxsy https:/\u2026", "time": "Wed May 02 04:12:36 +0000 2018"}, {"source": {"lat": 26.316775, "lng": -80.245605, "name": "Parkland, FL"}, "destination": {"lat": 34.098663, "lng": -118.327996, "name": "Kanye West called slavery a choice. TMZ's Van Lathan gave a forceful and thoughtful rebuke.", "city": "Los Angeles", "state": "CA"}, "text": "RT @QGotNoRings: You got Kanye West who has aligned himself with white supremacists and their black mouth pieces. He's currently talking ab\u2026", "time": "Wed May 02 04:12:36 +0000 2018"}, {"source": {"lat": 34.098663, "lng": -118.327996, "name": "Los Angeles, CA"}, "destination": {"lat": 38.911477, "lng": -77.036207, "name": "Mueller raised possibility of presidential subpoena in meeting with Trump's legal team", "city": "Washington", "state": "DC"}, "text": "Mueller to Cite Subpoena Power If Trump Won't Do Interview - Bloomberg         Trump would be well advised not to l\u2026 https://t.co/2V44wLc8uP", "time": "Wed May 02 04:12:36 +0000 2018"}, {"source": {"lat": 41.873541, "lng": -87.6585, "name": "Chicago, IL"}, "destination": {"lat": 34.098663, "lng": -118.327996, "name": "Kanye West called slavery a choice. TMZ's Van Lathan gave a forceful and thoughtful rebuke.", "city": "Los Angeles", "state": "CA"}, "text": "RT @BBCWorld: Kanye West suggests African-American slavery was 'a choice' https://t.co/OUYOOuUTZA", "time": "Wed May 02 04:12:37 +0000 2018"}]