[{"source": {"lat": 42.516072, "lng": -80.519851, "name": "Pennsylvania"}, "destination": {"lat": 29.725763, "lng": -95.430728, "name": "Jeffrey Harden DDS", "city": "Houston", "state": "TX"}, "text": "Houston widened the lead with Harden on the bench!   #HOUvsOKC", "time": "Wed Mar 07 03:06:22 +0000 2018"}, {"source": {"lat": 41.160644, "lng": -80.711161, "name": "Youngstown"}, "destination": {"lat": 41.2202117, "lng": -73.66017579999999, "name": "Bedford Dental - Gary E Cohn DDS", "city": "Bedford Hills", "state": "NY"}, "text": "Did he work under Gary Cohn or something? https://t.co/ioatKBvwyw", "time": "Wed Mar 07 03:06:47 +0000 2018"}, {"source": {"lat": 29.693046, "lng": -98.778559, "name": "San Antonio"}, "destination": {"lat": 36.141076, "lng": -96.1060105, "name": "The Computer Dude", "city": "Sand Springs", "state": "OK"}, "text": "Dude tell this Olympian on the after-show to suck bananas off. #TheChallengeVendettas", "time": "Wed Mar 07 03:07:08 +0000 2018"}, {"source": {"lat": 37.040435, "lng": -86.542319, "name": "Bowling Green"}, "destination": {"lat": 44.921889, "lng": -89.650994, "name": "Becca's Cafe, Bistro & Catering", "city": "Wausau", "state": "WI"}, "text": "Becca as the bachelorette??? I love that!!!! #afterthefinalrose #TheBachelorette", "time": "Wed Mar 07 03:07:13 +0000 2018"}, {"source": {"lat": 38.316394, "lng": -90.431884, "name": "Pevely"}, "destination": {"lat": 42.3330229, "lng": -83.0425324, "name": "Ready Player One", "city": "Detroit", "state": "MI"}, "text": "Ready Player One just shot itself in the foot", "time": "Wed Mar 07 03:07:18 +0000 2018"}, {"source": {"lat": 71.434357, "lng": -179.231086, "name": "United States"}, "destination": {"lat": 43.7065999, "lng": -79.3979876, "name": "CIBC Banking Centre with ATM", "city": "ON M4P 3A1", "state": "Ca"}, "text": "#Director #Leadership #CIBC #Toronto #AfterTheFinalRose #GaryCohn #SDLive #TheFlash #TheChallengeVendettas #HAHN\u2026 https://t.co/KnIjPKOnED", "time": "Wed Mar 07 03:07:25 +0000 2018"}, {"source": {"lat": 31.001056, "lng": -87.634643, "name": "Florida"}, "destination": {"lat": 37.6510682, "lng": -95.45250109999999, "name": "We Got It Powersports", "city": "Chanute", "state": "KS"}, "text": "Gotta admit Dr.Bekker is kinda growing on me.  #ChicagoMed", "time": "Wed Mar 07 03:14:46 +0000 2018"}, {"source": {"lat": 34.073159, "lng": -86.079043, "name": "Gadsden"}, "destination": {"lat": 42.7710991, "lng": -71.24894270000001, "name": "Get Down Tonight Entertainment", "city": "Salem", "state": "NH"}, "text": "Tonight's episode of @CW_TheFlash was crazy good! Easily one of my all-time favorites. #TheFlash", "time": "Wed Mar 07 03:14:59 +0000 2018"}, {"source": {"lat": 41.073272, "lng": -95.785164, "name": "Glenwood"}, "destination": {"lat": 35.7256021, "lng": -97.52184969999999, "name": "Darius Auto Sales LLC", "city": "Edmond", "state": "OK"}, "text": "Darius has complimented her looks twice and told her to \u201calways look like this\u201d (dressed up). Not a fan. #AftertheFinalRose #Bachelorette", "time": "Wed Mar 07 03:14:59 +0000 2018"}, {"source": {"lat": 31.001056, "lng": -87.634643, "name": "Florida"}, "destination": {"lat": 36.0621763, "lng": -95.7964337, "name": "Mary Jayne's Flowers", "city": "Broken Arrow", "state": "OK"}, "text": "I have to say it....Erica Jayne\u2019s shirts are absolutely hideous \ud83d\ude2b\ud83d\ude2b\ud83d\ude2b My Mom wore those styled shirts. In the 70\u2019s, t\u2026 https://t.co/5rKYAGSKNM", "time": "Wed Mar 07 03:15:01 +0000 2018"}, {"source": {"lat": 33.886336, "lng": -118.290541, "name": "Carson"}, "destination": {"lat": 36.406, "lng": -95.7619, "name": "Risley's Trash Services", "city": "Oologah", "state": "OK"}, "text": "Trash people. \ud83e\udd22 #ThingsIAlwaysAvoid #idontplaywithtrash #disgusting #insincere", "time": "Wed Mar 07 03:15:19 +0000 2018"}, {"source": {"lat": 31.001056, "lng": -87.634643, "name": "Florida"}, "destination": {"lat": 37.09024, "lng": -95.712891, "name": "United States", "city": "", "state": ""}, "text": "@POTUS done messed up now...again. #smartestguyintheroomjustlefttheroom https://t.co/oISLXYtXcq", "time": "Wed Mar 07 03:15:26 +0000 2018"}, {"source": {"lat": 41.538303, "lng": -81.512787, "name": "Lyndhurst"}, "destination": {"lat": 37.0330909, "lng": -95.6257751, "name": "Schmia Candace", "city": "Coffeyville", "state": "KS"}, "text": "I can\u2019t stand the character of Candace or Veronica the bullying and intimidation is hard for any strong woman to wa\u2026 https://t.co/H612XYhF6p", "time": "Wed Mar 07 03:15:40 +0000 2018"}, {"source": {"lat": 38.934311, "lng": -77.172219, "name": "Arlington"}, "destination": {"lat": 42.3330229, "lng": -83.0425324, "name": "Ready Player One", "city": "Detroit", "state": "MI"}, "text": "@rejects Ready Player One is an overrated book. I\u2019m sure the movie will be just as overrated.", "time": "Wed Mar 07 03:16:05 +0000 2018"}, {"source": {"lat": 31.001056, "lng": -87.634643, "name": "Florida"}, "destination": {"lat": 38.0014004, "lng": -97.5086518, "name": "Halstead", "city": "", "state": ""}, "text": "Halstead times two \ud83d\ude0d\ud83d\ude0d\ud83d\ude0d#ChicagoMed", "time": "Wed Mar 07 03:16:12 +0000 2018"}, {"source": {"lat": 40.13792, "lng": -75.280284, "name": "Philadelphia"}, "destination": {"lat": 36.1327558, "lng": -95.96532719999999, "name": "Snow Goose", "city": "Tulsa", "state": "OK"}, "text": "Snow day tomorrow. https://t.co/AxoHngf27u", "time": "Wed Mar 07 03:16:15 +0000 2018"}, {"source": {"lat": 35.416412, "lng": -81.046876, "name": "Charlotte"}, "destination": {"lat": 44.921889, "lng": -89.650994, "name": "Becca's Cafe, Bistro & Catering", "city": "Wausau", "state": "WI"}, "text": "\u201cSomeone who is loyal, can make me laugh, honesty, all the good things.\u201d - Becca #somuchshade #afterthefinalrose #thebachelorette", "time": "Wed Mar 07 03:16:20 +0000 2018"}, {"source": {"lat": 33.498596, "lng": -117.732278, "name": "Dana Point"}, "destination": {"lat": 36.3708699, "lng": -94.19307599999999, "name": "Trump Tours", "city": "Bentonville", "state": "AR"}, "text": "From 2009-2017, this man wasn't plagued by one scandal. Now, Trump is awash in scandal after scandal after scandal\u2026 https://t.co/tlrdbQWemj", "time": "Wed Mar 07 03:16:33 +0000 2018"}, {"source": {"lat": 25.872623, "lng": -80.147162, "name": "Miami Beach"}, "destination": {"lat": 36.151414, "lng": -95.99931, "name": "T E Mowry Co", "city": "Tulsa", "state": "OK"}, "text": "Te contamos en un abrir y cerrar de ojos 3 historias del d\u00eda: https://t.co/fk0uhSGF20", "time": "Wed Mar 07 03:16:36 +0000 2018"}, {"source": {"lat": 40.613641, "lng": -95.774704, "name": "Missouri"}, "destination": {"lat": 32.1656221, "lng": -82.9000751, "name": "Georgia", "city": "", "state": ""}, "text": "You know they\u2019re about to find a Templar cross in Georgia.  FML.  #civilwargold #oakisland", "time": "Wed Mar 07 03:16:39 +0000 2018"}]